{"version": 0.6, "generator": "Overpass API 0.7.62.1 084b4234", "osm3s": {"timestamp_osm_base": "2024-04-10T04:09:44Z", "copyright": "The data included in this document is from www.openstreetmap.org. The data is made available under ODbL."}, "elements": [{"type": "node", "id": 356854130, "lat": 30.2426179, "lon": -97.7817125, "tags": {"amenity": "place_of_worship", "ele": "205", "gnis:county_id": "453", "gnis:created": "11/13/2007", "gnis:feature_id": "2360870", "gnis:state_id": "48", "name": "Chittamani Buddhist Center", "religion": "buddhist"}}, {"type": "node", "id": 919327995, "lat": 30.2415436, "lon": -97.7833214, "tags": {"amenity": "restaurant", "name": "Chinatown"}}, {"type": "node", "id": 3190702922, "lat": 30.2425053, "lon": -97.783148, "tags": {"addr:city": "Austin", "addr:housenumber": "3003", "addr:postcode": "78704", "addr:state": "TX", "addr:street": "South Lamar Boulevard", "amenity": "restaurant", "capacity": "150", "cuisine": "american;british", "email": "southaustin@bakerstreetpub.com", "name": "Baker Street Pub and Grill", "opening_hours": "Mo-Su 11:00-02:00", "phone": "+1-512-691-9140", "smoking": "outside", "takeaway": "yes", "website": "https://www.bakerstreetpub.com"}}, {"type": "node", "id": 3190821386, "lat": 30.2422172, "lon": -97.7835352, "tags": {"addr:city": "Austin", "addr:housenumber": "3003", "addr:postcode": "78704", "addr:state": "TX", "addr:street": "South Lamar Boulevard", "amenity": "cafe", "name": "Kerbey Lane Cafe", "opening_hours": "Fr-Sa 07:00-24:00; Su-Th 07:00-22:00", "outdoor_seating": "yes", "phone": "+1-512-445-4451", "website": "https://kerbeylanecafe.com/locations/south"}}, {"type": "node", "id": 3853445435, "lat": 30.242825, "lon": -97.783986}, {"type": "node", "id": 3853445457, "lat": 30.242913, "lon": -97.783739}, {"type": "node", "id": 3853445459, "lat": 30.242914, "lon": -97.783771}, {"type": "node", "id": 3853445460, "lat": 30.242915, "lon": -97.784073}, {"type": "node", "id": 3853445464, "lat": 30.242927, "lon": -97.783752}, {"type": "node", "id": 3853445471, "lat": 30.242954, "lon": -97.783809}, {"type": "node", "id": 3853445482, "lat": 30.242977, "lon": -97.783651}, {"type": "node", "id": 3853445486, "lat": 30.242991, "lon": -97.783664}, {"type": "node", "id": 3853445492, "lat": 30.243005, "lon": -97.783646}, {"type": "node", "id": 3853445529, "lat": 30.243133, "lon": -97.78377}, {"type": "node", "id": 3853445530, "lat": 30.243134, "lon": -97.783771}, {"type": "node", "id": 3871894955, "lat": 30.243509, "lon": -97.781888, "tags": {"addr:housenumber": "2803", "addr:postcode": "78704", "addr:street": "South Lamar Boulevard", "amenity": "restaurant", "cuisine": "mexican;tacos", "name": "Papalote Taco House", "opening_hours": "Mo-Fr 07:00-22:00; Sa 08:00-22:00; Su 08:00-20:00", "phone": "+1-512-804-2474", "website": "http://yumpapalote.com"}}, {"type": "node", "id": 11012760238, "lat": 30.2423433, "lon": -97.7833416, "tags": {"amenity": "restaurant", "brand": "Jet's Pizza", "brand:wikidata": "Q16997713", "cuisine": "pizza", "name": "Jet's Pizza"}}, {"type": "way", "id": 382145921, "nodes": [3853445529, 3853445492, 3853445486, 3853445482, 3853445457, 3853445464, 3853445459, 3853445471, 3853445435, 3853445460, 3853445530, 3853445529], "tags": {"amenity": "restaurant", "building": "yes", "height": "9.7"}}]}