{"version": 0.6, "generator": "Overpass API 0.7.62.1 084b4234", "osm3s": {"timestamp_osm_base": "2024-04-10T04:10:47Z", "copyright": "The data included in this document is from www.openstreetmap.org. The data is made available under ODbL."}, "elements": [{"type": "node", "id": 1148144462, "lat": 30.2686456, "lon": -97.7423865}, {"type": "node", "id": 1481633387, "lat": 30.2686438, "lon": -97.7454056, "tags": {"addr:city": "Austin", "addr:housenumber": "301", "addr:postcode": "78701", "addr:state": "TX", "addr:street": "West 6th Street", "air_conditioning": "yes", "amenity": "bar", "lgbtq": "primary", "name": "The Iron Bear", "opening_hours": "Mo-Su 11:00-02:00", "smoking": "no", "takeaway": "yes", "website": "https://www.theironbear.com/"}}, {"type": "node", "id": 1481633389, "lat": 30.2686611, "lon": -97.7454947, "tags": {"amenity": "restaurant", "name": "Belmont"}}, {"type": "node", "id": 1483931073, "lat": 30.2694661, "lon": -97.7435164, "tags": {"amenity": "restaurant", "name": "Perry's Steakhouse"}}, {"type": "node", "id": 1483931076, "lat": 30.2701619, "lon": -97.7432887, "tags": {"amenity": "cafe", "name": "The Amsterdam"}}, {"type": "node", "id": 1489746987, "lat": 30.2701007, "lon": -97.7433124, "tags": {"amenity": "bar"}}, {"type": "node", "id": 5771939719, "lat": 30.2703884, "lon": -97.7450556, "tags": {"amenity": "restaurant", "name": "Luby's Cafeteria", "takeaway": "yes"}}, {"type": "node", "id": 11242814776, "lat": 30.2686227, "lon": -97.7422994}, {"type": "node", "id": 11242814791, "lat": 30.2685903, "lon": -97.7424083}, {"type": "node", "id": 11242814792, "lat": 30.2684879, "lon": -97.7420367}, {"type": "node", "id": 11242814794, "lat": 30.2684642, "lon": -97.7419466}, {"type": "node", "id": 11242814795, "lat": 30.2685219, "lon": -97.7419262}, {"type": "way", "id": 1213502018, "nodes": [1148144462, 11242814791, 11242814792, 11242814794, 11242814795, 11242814776, 1148144462], "tags": {"addr:city": "Austin", "addr:housenumber": "617", "addr:postcode": "78701", "addr:state": "TX", "addr:street": "Congress Avenue", "amenity": "cafe", "building": "yes", "cuisine": "coffee_shop", "name": "The Hideout Coffee House"}}]}