{"version": 0.6, "generator": "Overpass API 0.7.62.1 084b4234", "osm3s": {"timestamp_osm_base": "2024-04-10T04:11:52Z", "copyright": "The data included in this document is from www.openstreetmap.org. The data is made available under ODbL."}, "elements": [{"type": "node", "id": 530771951, "lat": 30.3179696, "lon": -97.7382037}, {"type": "node", "id": 530779155, "lat": 30.3173785, "lon": -97.7406015, "tags": {"amenity": "cafe", "name": "Pacha"}}, {"type": "node", "id": 530779448, "lat": 30.3185788, "lon": -97.7397518, "tags": {"addr:city": "Austin", "addr:postcode": "78756", "amenity": "restaurant", "name": "Blue Star Cafeteria"}}, {"type": "node", "id": 530779957, "lat": 30.3183417, "lon": -97.7399664, "tags": {"addr:city": "Austin", "addr:postcode": "78756", "amenity": "restaurant", "cuisine": "italian", "name": "Gusto Italian Kitchen", "website": "https://gustoitaliankitchen.com/"}}, {"type": "node", "id": 530780615, "lat": 30.3179119, "lon": -97.7402411, "tags": {"amenity": "restaurant", "name": "Maru Japanese"}}, {"type": "node", "id": 532751062, "lat": 30.3169083, "lon": -97.7379941}, {"type": "node", "id": 532751063, "lat": 30.3175252, "lon": -97.7392639}, {"type": "node", "id": 532751064, "lat": 30.3182371, "lon": -97.7387867}, {"type": "node", "id": 532751065, "lat": 30.317659, "lon": -97.737539}, {"type": "node", "id": 2142168077, "lat": 30.3187523, "lon": -97.7390631, "tags": {"addr:city": "Austin", "addr:housenumber": "4729", "addr:postcode": "78756", "addr:state": "TX", "addr:street": "Burnet Road", "amenity": "pub", "email": "info@pinthousepizza.com", "name": "Pinthouse Pizza", "opening_hours": "Su-We 11:00-23:00; Th-Sa 11:00-24:00", "phone": "+1-512-436-9605", "website": "http://pinthousepizza.com/"}}, {"type": "node", "id": 3654620896, "lat": 30.3189329, "lon": -97.7395309}, {"type": "node", "id": 3654620897, "lat": 30.3189603, "lon": -97.7395151}, {"type": "node", "id": 3654620898, "lat": 30.3189534, "lon": -97.7394991}, {"type": "node", "id": 3654620899, "lat": 30.3191022, "lon": -97.7394136}, {"type": "node", "id": 3654620900, "lat": 30.31916, "lon": -97.7395487}, {"type": "node", "id": 3654620901, "lat": 30.3190902, "lon": -97.7395888}, {"type": "node", "id": 3654620902, "lat": 30.3190791, "lon": -97.739573}, {"type": "node", "id": 3654620903, "lat": 30.3189762, "lon": -97.7396321}, {"type": "node", "id": 3849771106, "lat": 30.318904, "lon": -97.738972, "tags": {"addr:housenumber": "4801", "addr:postcode": "78756", "addr:street": "Burnet Road", "amenity": "cafe", "name": "Picnik", "opening_hours": "Su-Th 07:00-21:00; Fr-Sa 07:00-22:00", "phone": "+1-737-226-0644", "reservation": "no", "website": "https://picnikaustin.com/"}}, {"type": "node", "id": 11680110620, "lat": 30.3181945, "lon": -97.738694}, {"type": "way", "id": 42638925, "nodes": [532751062, 532751063, 532751064, 11680110620, 530771951, 532751065, 532751062], "tags": {"addr:city": "Austin", "addr:housenumber": "4700", "addr:postcode": "78756", "addr:street": "Grover Avenue", "amenity": "place_of_worship", "name": "First Unitarian Universalist Church of Austin", "phone": "+1-512-452-6168", "religion": "unitarian_universalist", "website": "http://austinuu.org/"}}, {"type": "way", "id": 360921966, "nodes": [3654620896, 3654620897, 3654620898, 3654620899, 3654620900, 3654620901, 3654620902, 3654620903, 3654620896], "tags": {"addr:city": "Austin", "addr:housenumber": "4800", "addr:postcode": "78756", "addr:state": "TX", "addr:street": "Burnet Road", "amenity": "cafe", "building": "yes", "cuisine": "oyster", "internet_access": "yes", "name": "Apothecary Cafe & Wine Bar"}}]}