{"version": 0.6, "generator": "Overpass API 0.7.62.1 084b4234", "osm3s": {"timestamp_osm_base": "2024-04-09T04:12:01Z", "copyright": "The data included in this document is from www.openstreetmap.org. The data is made available under ODbL."}, "elements": [{"type": "node", "id": 320728066, "lat": 30.4722124, "lon": -97.7997338}, {"type": "node", "id": 320728067, "lat": 30.4722586, "lon": -97.7995838}, {"type": "node", "id": 320728068, "lat": 30.4720291, "lon": -97.7994885}, {"type": "node", "id": 320728069, "lat": 30.4719828, "lon": -97.7996385}, {"type": "node", "id": 320884370, "lat": 30.4744703, "lon": -97.7984686}, {"type": "node", "id": 320884371, "lat": 30.4745605, "lon": -97.7981668}, {"type": "node", "id": 320884372, "lat": 30.4743869, "lon": -97.7980969}, {"type": "node", "id": 320884373, "lat": 30.4742967, "lon": -97.7983988}, {"type": "node", "id": 7094945931, "lat": 30.4721637, "lon": -97.7969782, "tags": {"addr:city": "Austin", "addr:housenumber": "13945", "addr:postcode": "78717", "addr:state": "TX", "addr:street": "Highway 183 North", "addr:unit": "C-80", "amenity": "restaurant", "cuisine": "thai", "diet:healthy": "yes", "diet:vegetarian": "yes", "name": "Muangthai Thai Cuisine", "opening_hours": "Tu-Fr 11:00-14:30,16:30-21:30; Sa-Su 12:00-21:30", "phone": "+1-512-219-5999", "website": "https://muangthaicuisine.com/", "wheelchair": "yes"}}, {"type": "node", "id": 7094945934, "lat": 30.4725247, "lon": -97.79697, "tags": {"addr:city": "Austin", "addr:housenumber": "13945", "addr:postcode": "78717", "addr:state": "TX", "addr:street": "Highway 183 North", "addr:unit": "C-5", "amenity": "restaurant", "cuisine": "indian", "diet:halal": "yes", "diet:vegetarian": "yes", "name": "Biryani-N-Grill", "opening_hours": "Mo-Su 11:00-22:00", "phone": "+1-512-879-4123", "takeaway": "yes", "website": "http://biryaningrill.com/north/", "wheelchair": "yes"}}, {"type": "node", "id": 8525797174, "lat": 30.4721107, "lon": -97.7995224, "tags": {"entrance": "main"}}, {"type": "node", "id": 8532169387, "lat": 30.4743369, "lon": -97.798415, "tags": {"entrance": "main"}}, {"type": "node", "id": 8532169389, "lat": 30.4745464, "lon": -97.7982161}, {"type": "node", "id": 8532169390, "lat": 30.4744812, "lon": -97.7984317}, {"type": "way", "id": 29159513, "nodes": [320728066, 320728067, 8525797174, 320728068, 320728069, 320728066], "tags": {"addr:city": "Cedar Park", "addr:housenumber": "11013", "addr:postcode": "78613", "addr:state": "TX", "addr:street": "Lakeline Mall Drive", "amenity": "restaurant", "brand": "Applebee's Neighborhood Grill & Bar", "brand:wikidata": "Q621532", "building": "commercial", "cuisine": "american", "delivery": "yes", "internet_access": "wlan", "name": "Applebee's", "official_name": "Applebee's Neighborhood Grill & Bar", "opening_hours": "Mo-Su 11:00-02:00", "phone": "+1-512-257-9747", "safety:mask:covid19": "yes", "takeaway": "yes", "website": "https://www.applebees.com/en"}}, {"type": "way", "id": 29177460, "nodes": [320884370, 8532169390, 8532169389, 320884371, 320884372, 320884373, 8532169387, 320884370], "tags": {"addr:city": "Austin", "addr:housenumber": "13995", "addr:postcode": "78717", "addr:state": "TX", "addr:street": "Research Boulevard", "amenity": "restaurant", "bar": "yes", "building": "yes", "cuisine": "regional", "email": "foxhole@foxholetavern.com", "name": "Foxhole Culinary Tavern", "opening_hours": "Mo-We 11:00-23:00; Th-Fr 11:00-24:00; Sa 10:00-24:00; Su 10:00-23:00", "opening_hours:covid19": "Mo-Fr 15:00-21:00; Sa-Su 10:00-21:00", "outdoor_seating": "yes", "phone": "+1-512-386-1354", "reservation": "yes", "takeaway": "yes", "website": "https://www.foxholeaustin.com/", "wheelchair": "yes"}}]}