{"version": 0.6, "generator": "Overpass API 0.7.62.1 084b4234", "osm3s": {"timestamp_osm_base": "2024-04-11T03:46:35Z", "copyright": "The data included in this document is from www.openstreetmap.org. The data is made available under ODbL."}, "elements": [{"type": "node", "id": 3181780244, "lat": 30.25112, "lon": -97.7493644}, {"type": "node", "id": 3181872963, "lat": 30.2508288, "lon": -97.7489794, "tags": {"amenity": "restaurant", "cuisine": "japanese", "name": "Lucky Robot"}}, {"type": "node", "id": 3181872977, "lat": 30.2510729, "lon": -97.7493828}, {"type": "node", "id": 3181872978, "lat": 30.2510869, "lon": -97.7494309}, {"type": "node", "id": 3181872979, "lat": 30.2509542, "lon": -97.7494827}, {"type": "node", "id": 3181872980, "lat": 30.2509256, "lon": -97.7493844}, {"type": "node", "id": 3181872981, "lat": 30.2511055, "lon": -97.7493143}, {"type": "node", "id": 11012760239, "lat": 30.2530792, "lon": -97.7478012, "tags": {"amenity": "restaurant", "cuisine": "israeli", "name": "Aba"}}, {"type": "way", "id": 312337826, "nodes": [3181780244, 3181872977, 3181872978, 3181872979, 3181872980, 3181872981, 3181780244], "tags": {"addr:housenumber": "1300", "addr:street": "South Congress Avenue", "amenity": "cafe", "building": "yes", "facebook": "https://www.facebook.com/joscoffee", "name": "Jo's Coffee", "website": "https://www.joscoffee.com/south-congress-jos"}}]}