{"version": 0.6, "generator": "Overpass API 0.7.62.1 084b4234", "osm3s": {"timestamp_osm_base": "2024-04-09T04:13:59Z", "copyright": "The data included in this document is from www.openstreetmap.org. The data is made available under ODbL."}, "elements": [{"type": "node", "id": 860544292, "lat": 30.3637327, "lon": -97.7181894}, {"type": "node", "id": 860544294, "lat": 30.3636473, "lon": -97.7185472}, {"type": "node", "id": 860544295, "lat": 30.3635533, "lon": -97.7185171}, {"type": "node", "id": 860544296, "lat": 30.3636387, "lon": -97.7181592}, {"type": "node", "id": 2527535404, "lat": 30.3635213, "lon": -97.7194319, "tags": {"addr:city": "Austin", "addr:housenumber": "8716", "addr:postcode": "78758", "addr:state": "TX", "addr:street": "Research Boulevard", "addr:unit": "290", "amenity": "restaurant", "cuisine": "mexican;bakery", "email": "info@mtrbakery.com", "name": "Mi Tradici\u00f3n Panader\u00eda", "opening_hours": "Mo-Su 07:00-21:30", "phone": "+1-512-374-9910", "website": "https://mitradicionbakery.com/"}}, {"type": "node", "id": 3146027914, "lat": 30.3626624, "lon": -97.7185807, "tags": {"addr:city": "Austin", "addr:housenumber": "1725", "addr:postcode": "78757", "addr:street": "Ohlen Road", "amenity": "restaurant", "cuisine": "chicken", "name": "Pollo Regio"}}, {"type": "way", "id": 72486514, "nodes": [860544292, 860544294, 860544295, 860544296, 860544292], "tags": {"addr:city": "Austin", "addr:housenumber": "8702", "addr:postcode": "78757", "addr:street": "Research Boulevard", "amenity": "restaurant", "building": "yes", "cuisine": "pollo_asado", "name": "El Pollo Rico", "website": "https://www.pollosricos.com/"}}]}