{"version": 0.6, "generator": "Overpass API 0.7.62.1 084b4234", "osm3s": {"timestamp_osm_base": "2024-04-10T03:06:59Z", "copyright": "The data included in this document is from www.openstreetmap.org. The data is made available under ODbL."}, "elements": [{"type": "node", "id": 3307530884, "lat": 30.2271038, "lon": -97.7910429, "tags": {"addr:city": "Austin", "addr:housenumber": "4600", "addr:postcode": "78745", "addr:state": "TX", "addr:street": "Manchaca Road", "amenity": "place_of_worship", "denomination": "baptist", "name": "Woodlawn Baptist Church", "phone": "+1-512-442-7858", "religion": "christian", "website": "https://www.woodlawnbc.org/"}}, {"type": "node", "id": 3872105898, "lat": 30.228627, "lon": -97.789448}, {"type": "node", "id": 3872106004, "lat": 30.228745, "lon": -97.789757}, {"type": "node", "id": 3872106015, "lat": 30.228755, "lon": -97.789724}, {"type": "node", "id": 3872106020, "lat": 30.228758, "lon": -97.789637}, {"type": "node", "id": 3872106025, "lat": 30.228765, "lon": -97.789744}, {"type": "node", "id": 3872106051, "lat": 30.228795, "lon": -97.789342}, {"type": "node", "id": 3872106069, "lat": 30.228811, "lon": -97.789581}, {"type": "node", "id": 3872106071, "lat": 30.228812, "lon": -97.7896}, {"type": "node", "id": 3872106075, "lat": 30.228818, "lon": -97.789593}, {"type": "node", "id": 3872106077, "lat": 30.228821, "lon": -97.789392}, {"type": "node", "id": 3872106095, "lat": 30.228836, "lon": -97.789934}, {"type": "node", "id": 3872106104, "lat": 30.228851, "lon": -97.789677}, {"type": "node", "id": 3872106108, "lat": 30.228861, "lon": -97.789365}, {"type": "node", "id": 3872106135, "lat": 30.228889, "lon": -97.789401}, {"type": "node", "id": 3872106137, "lat": 30.22889, "lon": -97.789898}, {"type": "node", "id": 3872106161, "lat": 30.228921, "lon": -97.789523}, {"type": "node", "id": 3872106167, "lat": 30.228928, "lon": -97.789503}, {"type": "node", "id": 3872106169, "lat": 30.228929, "lon": -97.789374}, {"type": "node", "id": 3872106170, "lat": 30.228929, "lon": -97.789454}, {"type": "node", "id": 3872106191, "lat": 30.228959, "lon": -97.789434}, {"type": "node", "id": 3872106192, "lat": 30.228961, "lon": -97.789602}, {"type": "node", "id": 5771820041, "lat": 30.227845, "lon": -97.7892495, "tags": {"addr:city": "Austin", "addr:housenumber": "4501", "addr:postcode": "78745", "addr:state": "TX", "addr:street": "Manchaca Road", "amenity": "restaurant", "cuisine": "tex-mex", "name": "El Chilito", "opening_hours": "Mo-Su 08:00-21:00"}}, {"type": "way", "id": 383904159, "nodes": [3872106015, 3872106025, 3872106004, 3872106095, 3872106137, 3872106020, 3872106071, 3872106104, 3872106192, 3872106161, 3872106075, 3872106069, 3872106167, 3872106170, 3872106191, 3872106169, 3872106135, 3872106108, 3872106077, 3872106051, 3872105898, 3872106015], "tags": {"addr:housenumber": "4430", "addr:postcode": "78745", "addr:street": "Menchaca Road", "amenity": "place_of_worship", "building": "yes", "denomination": "nondenominational", "gnis:feature_id": "2360623", "height": "8.7", "name": "Sunrise Community Church", "religion": "christian", "service_times": "Su 10:00", "website": "https://sunriseaustin.org"}}]}