{"version": 0.6, "generator": "Overpass API 0.7.62.1 084b4234", "osm3s": {"timestamp_osm_base": "2024-04-11T03:46:35Z", "copyright": "The data included in this document is from www.openstreetmap.org. The data is made available under ODbL."}, "elements": [{"type": "node", "id": 919335942, "lat": 30.2561056, "lon": -97.7462026, "tags": {"addr:city": "Austin", "addr:housenumber": "515", "addr:postcode": "78704", "addr:street": "South Congress Avenue", "air_conditioning": "yes", "amenity": "cafe", "diet:vegan": "yes", "diet:vegetarian": "yes", "email": "bennucoffee@gmail.com", "image": "http://www.bennucoffee.com/images/logo.svg", "indoor_seating": "yes", "internet_access": "wlan", "internet_access:fee": "customers", "name": "Bennu Coffee Shop", "opening_hours": "Mo-Su 06:00-01:00", "outdoor_seating": "yes", "payment:credit_cards": "yes", "payment:debit_cards": "yes", "phone": "+1-512-448-3919", "smoking": "outside", "website": "https://bennucoffee.com/", "wheelchair": "no"}}, {"type": "node", "id": 1481848589, "lat": 30.2565437, "lon": -97.7474697, "tags": {"amenity": "bar", "name": "Ego's"}}, {"type": "node", "id": 3857571861, "lat": 30.256248, "lon": -97.745561}, {"type": "node", "id": 3857571862, "lat": 30.256279, "lon": -97.74559}, {"type": "node", "id": 3857571863, "lat": 30.256295, "lon": -97.745568}, {"type": "node", "id": 3857571864, "lat": 30.25631, "lon": -97.745585}, {"type": "node", "id": 3857571865, "lat": 30.256311, "lon": -97.745583}, {"type": "node", "id": 3857571866, "lat": 30.256329, "lon": -97.745633}, {"type": "node", "id": 3857571867, "lat": 30.256342, "lon": -97.745615}, {"type": "node", "id": 3857571868, "lat": 30.256358, "lon": -97.74566}, {"type": "node", "id": 3857571869, "lat": 30.256362, "lon": -97.745396}, {"type": "node", "id": 3857571870, "lat": 30.256379, "lon": -97.745394}, {"type": "node", "id": 3857571871, "lat": 30.256469, "lon": -97.745478}, {"type": "node", "id": 3857571872, "lat": 30.256471, "lon": -97.745497}, {"type": "way", "id": 382550113, "nodes": [3857571869, 3857571861, 3857571862, 3857571863, 3857571865, 3857571864, 3857571867, 3857571866, 3857571868, 3857571872, 3857571871, 3857571870, 3857571869], "tags": {"addr:city": "Austin", "addr:housenumber": "134", "addr:postcode": "78704", "addr:state": "TX", "addr:street": "East Riverside Drive", "amenity": "restaurant", "building": "yes", "cuisine": "mexican", "height": "5.0", "name": "Taco Joint"}}]}