{"version": 0.6, "generator": "Overpass API 0.7.62.1 084b4234", "osm3s": {"timestamp_osm_base": "2024-04-10T04:10:47Z", "copyright": "The data included in this document is from www.openstreetmap.org. The data is made available under ODbL."}, "elements": [{"type": "node", "id": 3190845084, "lat": 30.2475144, "lon": -97.7747477, "tags": {"addr:housenumber": "2310", "addr:street": "South Lamar Boulevard", "amenity": "restaurant", "name": "East Side King"}}, {"type": "node", "id": 3856422115, "lat": 30.247346, "lon": -97.772649}, {"type": "node", "id": 3856422125, "lat": 30.247371, "lon": -97.77256}, {"type": "node", "id": 3856422137, "lat": 30.247434, "lon": -97.772584}, {"type": "node", "id": 3856422138, "lat": 30.247438, "lon": -97.772571}, {"type": "node", "id": 3856422142, "lat": 30.247468, "lon": -97.772695}, {"type": "node", "id": 3856422143, "lat": 30.247476, "lon": -97.772666}, {"type": "node", "id": 3856422144, "lat": 30.247487, "lon": -97.77267}, {"type": "node", "id": 3856422145, "lat": 30.247492, "lon": -97.772654}, {"type": "node", "id": 3856422147, "lat": 30.247503, "lon": -97.772658}, {"type": "node", "id": 3856422148, "lat": 30.247519, "lon": -97.772602}, {"type": "node", "id": 10865943771, "lat": 30.2479438, "lon": -97.7724021, "tags": {"addr:housenumber": "2120", "addr:street": "S Lamar Blvd", "amenity": "restaurant", "cuisine": "greek;mexican", "description": "Greek with a hint of Mexican", "name": "Ziki", "opening_hours": "Mo-Su 10:00-03:00", "takeaway": "yes", "website": "https://ziki.ktchen"}}, {"type": "node", "id": 10865943772, "lat": 30.2478149, "lon": -97.7746824, "tags": {"addr:city": "Austin", "addr:housenumber": "2300", "addr:postcode": "78704", "addr:state": "TX", "addr:street": "South Lamar Boulevard", "addr:unit": "Unit 104", "amenity": "cafe", "fee": "yes", "min_age": "6", "name": "Purr-Fecto Cat Lounge", "shop": "pet", "theme": "cat", "website": "https://purrfectocatlounge.com/"}}, {"type": "node", "id": 11012760237, "lat": 30.2474739, "lon": -97.7758453, "tags": {"amenity": "cafe", "cuisine": "coffee_shop", "name": "Maha Coffee"}}, {"type": "way", "id": 382444313, "nodes": [3856422125, 3856422115, 3856422142, 3856422143, 3856422144, 3856422145, 3856422147, 3856422148, 3856422138, 3856422137, 3856422125], "tags": {"addr:housenumber": "2159", "addr:street": "South Lamar Boulevard", "amenity": "cafe", "building": "yes", "height": "3.7", "name": "Patika"}}]}